{
  "south":[
    {
      "id":"1",
      "location":"野々市市役所",
      "lat":"36.519851",
      "lng":"136.609287"
    },
    {
      "id":"2",
      "location":"藤平田",
      "lat":"36.520591",
      "lng":"136.606262"
    },
    {
      "id":"3",
      "location":"下林南",
      "lat":"36.520915",
      "lng":"136.603442"
    },
    {
      "id":"4",
      "location":"下林西",
      "lat":"36.521029",
      "lng":"136.600602"
    },
    {
      "id":"5",
      "location":"清金団地",
      "lat":"36.519355",
      "lng":"136.595807"
    },
    {
      "id":"6",
      "location":"下清金",
      "lat":"36.51728",
      "lng":"136.595859"
    },
    {
      "id":"7",
      "location":"上清金",
      "lat":"36.513596",
      "lng":"136.596848"
    },
    {
      "id":"8",
      "location":"富樫苑",
      "lat":"36.51587",
      "lng":"136.599773"
    },
    {
      "id":"9",
      "location":"明和特別支援学校",
      "lat":"36.514565",
      "lng":"136.601391"
    },
    {
      "id":"10",
      "location":"藤平・林農産前",
      "lat":"36.514565",
      "lng":"136.603887"
    },
    {
      "id":"11",
      "location":"スポーツランド",
      "lat":"36.512607",
      "lng":"136.604989"
    },
    {
      "id":"12",
      "location":"中林丸の内",
      "lat":"36.509737",
      "lng":"136.603903"
    },
    {
      "id":"13",
      "location":"中林",
      "lat":"36.508119",
      "lng":"136.601715"
    },
    {
      "id":"14",
      "location":"県立大学",
      "lat":"36.507467",
      "lng":"136.596253"
    },
    {
      "id":"15",
      "location":"末松",
      "lat":"36.508408",
      "lng":"136.593925"
    },
    {
      "id":"16",
      "location":"サニーメイト",
      "lat":"36.506277",
      "lng":"136.591141"
    },
    {
      "id":"17",
      "location":"末松ガーデンアイル",
      "lat":"36.503413",
      "lng":"136.593292"
    },
    {
      "id":"18",
      "location":"上林",
      "lat":"36.503824",
      "lng":"136.602549"
    },
    {
      "id":"19",
      "location":"南部公園",
      "lat":"36.504157",
      "lng":"136.605882"
    },
    {
      "id":"20",
      "location":"新庄西",
      "lat":"36.502666",
      "lng":"136.606815"
    },
    {
      "id":"21",
      "location":"百々鶴荘",
      "lat":"36.498696",
      "lng":"136.599623"
    },
    {
      "id":"22",
      "location":"新庄南",
      "lat":"36.499287",
      "lng":"136.607241"
    },
    {
      "id":"23",
      "location":"南部浄水場",
      "lat":"36.497399",
      "lng":"136.610245"
    },
    {
      "id":"24",
      "location":"上新庄",
      "lat":"36.499552",
      "lng":"136.61076"
    },
    {
      "id":"25",
      "location":"新庄東",
      "lat":"36.501325",
      "lng":"136.61099"
    },
    {
      "id":"26",
      "location":"下新庄",
      "lat":"36.503999",
      "lng":"136.611388"
    },
    {
      "id":"27",
      "location":"新庄北",
      "lat":"36.507853",
      "lng":"136.612187"
    },
    {
      "id":"28",
      "location":"富奥郵便局・プララAコープ富奥店　前",
      "lat":"36.510896",
      "lng":"136.612471"
    },
    {
      "id":"29",
      "location":"乙丸駅",
      "lat":"36.511381",
      "lng":"136.617489"
    },
    {
      "id":"30",
      "location":"粟田中央",
      "lat":"36.513031",
      "lng":"136.614527"
    },
    {
      "id":"31",
      "location":"粟田北",
      "lat":"36.516511",
      "lng":"136.612357"
    },
    {
      "id":"32",
      "location":"矢作南",
      "lat":"36.519675",
      "lng":"136.612487"
    },
    {
      "id":"33",
      "location":"矢作西",
      "lat":"36.520265",
      "lng":"136.611378"
    }
  ]
}