{
  "west":[
    {
      "id":"1",
      "location":"野々市市役所",
      "lat":"36.519851",
      "lng":"136.609287"
    },
    {
      "id":"2",
      "location":"三納",
      "lat":"36.521995",
      "lng":"136.608943"
    },
    {
      "id":"3",
      "location":"野々市中学校",
      "lat":"36.524501",
      "lng":"136.609191"
    },
    {
      "id":"4",
      "location":"野々市消防署",
      "lat":"36.527426",
      "lng":"136.609463"
    },
    {
      "id":"5",
      "location":"カレード",
      "lat":"36.529153",
      "lng":"136.608578"
    },
    {
      "id":"6",
      "location":"太平寺西",
      "lat":"36.52921",
      "lng":"136.603684"
    },
    {
      "id":"7",
      "location":"堀内東",
      "lat":"36.529294",
      "lng":"136.601302"
    },
    {
      "id":"8",
      "location":"堀内中央",
      "lat":"36.530962",
      "lng":"136.600436"
    },
    {
      "id":"9",
      "location":"堀内北",
      "lat":"36.532837",
      "lng":"136.60017"
    },
    {
      "id":"10",
      "location":"万葉台",
      "lat":"36.534983",
      "lng":"136.598798"
    },
    {
      "id":"11",
      "location":"三日市",
      "lat":"36.53475",
      "lng":"136.594994"
    },
    {
      "id":"12",
      "location":"二日市南",
      "lat":"36.537599",
      "lng":"136.598055"
    },
    {
      "id":"13",
      "location":"野々市駅南口",
      "lat":"36.541525",
      "lng":"136.598073"
    },
    {
      "id":"14",
      "location":"二日市北",
      "lat":"36.538563",
      "lng":"136.59695"
    },
    {
      "id":"15",
      "location":"市営住宅前",
      "lat":"36.537004",
      "lng":"136.594147"
    },
    {
      "id":"16",
      "location":"徳用",
      "lat":"36.535403",
      "lng":"136.591209"
    },
    {
      "id":"17",
      "location":"郷町",
      "lat":"36.533544",
      "lng":"136.587815"
    },
    {
      "id":"18",
      "location":"柳町",
      "lat":"36.528776",
      "lng":"136.58318"
    },
    {
      "id":"19",
      "location":"金沢脳神経外科病院",
      "lat":"36.526423",
      "lng":"136.58783"
    },
    {
      "id":"20",
      "location":"南ヶ丘病院",
      "lat":"36.526537",
      "lng":"136.593881"
    },
    {
      "id":"21",
      "location":"明倫高校",
      "lat":"36.525009",
      "lng":"136.60028"
    },
    {
      "id":"22",
      "location":"下林郵便局",
      "lat":"36.523468",
      "lng":"136.60273"
    },
    {
      "id":"23",
      "location":"下林会館",
      "lat":"36.522102",
      "lng":"136.604285"
    },
    {
      "id":"24",
      "location":"藤平田南",
      "lat":"36.518914",
      "lng":"136.60585"
    }
  ]
}